{
"type": "FeatureCollection",
"features": [
{ "type": "Feature", "id": 0, "properties": { "OBJECTID": 65, "HOSP_ID": 21, "NAME": "Lowell General Hospital", "SHORTNAME": "Lowell General Hospital", "ADDRESS": "295 Varnum Avenue", "TOWN": "Lowell", "STATE": "MA", "ZIPCODE": "01854", "ER_STATUS": "Y", "TRAUMA": "Y", "TEACHING": "N", "ORG_ID": 85, "DPHNUMBER": "2040", "EMSREGION": 3 }, "geometry": { "type": "Point", "coordinates": [ 212973.177300, 932971.996700 ] } }
,
{ "type": "Feature", "id": 1, "properties": { "OBJECTID": 66, "HOSP_ID": 24, "NAME": "Hallmark Health System - Melrose-Wakefield Hospital Campus", "SHORTNAME": "Melrose-Wakefield Hospital", "ADDRESS": "585 Lebanon Street", "TOWN": "Melrose", "STATE": "MA", "ZIPCODE": "02176", "ER_STATUS": "Y", "TRAUMA": "N", "TEACHING": "N", "ORG_ID": 141, "DPHNUMBER": "2058", "EMSREGION": 3 }, "geometry": { "type": "Point", "coordinates": [ 236070.217300, 912299.066700 ] } }
,
{ "type": "Feature", "id": 2, "properties": { "OBJECTID": 67, "HOSP_ID": 26, "NAME": "Milford Regional Medical Center", "SHORTNAME": "Milford Regional Medical Center", "ADDRESS": "14 Prospect Street", "TOWN": "Milford", "STATE": "MA", "ZIPCODE": "01757", "ER_STATUS": "Y", "TRAUMA": "N", "TEACHING": "N", "ORG_ID": 97, "DPHNUMBER": "2105", "EMSREGION": 2 }, "geometry": { "type": "Point", "coordinates": [ 197671.597300, 875885.186700 ] } }
,
{ "type": "Feature", "id": 3, "properties": { "OBJECTID": 68, "HOSP_ID": 47, "NAME": "Saint Vincent Hospital", "SHORTNAME": "St. Vincent Hospital", "ADDRESS": "123 Summer Street", "TOWN": "Worcester", "STATE": "MA", "ZIPCODE": "01608", "ER_STATUS": "Y", "TRAUMA": "N", "TEACHING": "Y", "ORG_ID": 127, "DPHNUMBER": "2128", "EMSREGION": 2 }, "geometry": { "type": "Point", "coordinates": [ 175963.097300, 888811.376700 ] } }
,
{ "type": "Feature", "id": 4, "properties": { "OBJECTID": 69, "HOSP_ID": 49, "NAME": "Beth Israel Deaconess Medical Center - East Campus", "SHORTNAME": "Beth Israel Deaconess Med Ctr East", "ADDRESS": "330 Brookline Avenue", "TOWN": "Boston", "STATE": "MA", "ZIPCODE": "02215", "ER_STATUS": "Y", "TRAUMA": "Y", "TEACHING": "Y", "ORG_ID": 10, "DPHNUMBER": "2069", "EMSREGION": 4 }, "geometry": { "type": "Point", "coordinates": [ 232526.997300, 898892.716700 ] } }
,
{ "type": "Feature", "id": 5, "properties": { "OBJECTID": 70, "HOSP_ID": 50, "NAME": "Emerson Hospital", "SHORTNAME": "Emerson Hospital", "ADDRESS": "133 Old Road to Nine Acre Corner", "TOWN": "Concord", "STATE": "MA", "ZIPCODE": "01742", "ER_STATUS": "Y", "TRAUMA": "N", "TEACHING": "N", "ORG_ID": 57, "DPHNUMBER": "2018", "EMSREGION": 4 }, "geometry": { "type": "Point", "coordinates": [ 210087.797300, 911108.876700 ] } }
,
{ "type": "Feature", "id": 6, "properties": { "OBJECTID": 71, "HOSP_ID": 61, "NAME": "Martha's Vineyard Hospital", "SHORTNAME": "Martha's Vineyard Hospital", "ADDRESS": "One Hospital Road", "TOWN": "Oak Bluffs", "STATE": "MA", "ZIPCODE": "02557", "ER_STATUS": "Y", "TRAUMA": "N", "TEACHING": "N", "ORG_ID": 88, "DPHNUMBER": "2042", "EMSREGION": 5 }, "geometry": { "type": "Point", "coordinates": [ 276881.788300, 801594.383000 ] } }
,
{ "type": "Feature", "id": 7, "properties": { "OBJECTID": 72, "HOSP_ID": 66, "NAME": "Saints Medical Center", "SHORTNAME": "Saints Medical Center", "ADDRESS": "One Hospital Drive", "TOWN": "Lowell", "STATE": "MA", "ZIPCODE": "01852", "ER_STATUS": "Y", "TRAUMA": "N", "TEACHING": "N", "ORG_ID": 115, "DPHNUMBER": "2063", "EMSREGION": 3 }, "geometry": { "type": "Point", "coordinates": [ 216336.967300, 932812.626700 ] } }
,
{ "type": "Feature", "id": 8, "properties": { "OBJECTID": 73, "HOSP_ID": 70, "NAME": "Marlborough Hospital", "SHORTNAME": "Marlborough Hospital", "ADDRESS": "157 Union Street", "TOWN": "Marlborough", "STATE": "MA", "ZIPCODE": "01752", "ER_STATUS": "Y", "TRAUMA": "N", "TEACHING": "N", "ORG_ID": 133, "DPHNUMBER": "2103", "EMSREGION": 2 }, "geometry": { "type": "Point", "coordinates": [ 195505.437300, 900535.996700 ] } }
,
{ "type": "Feature", "id": 9, "properties": { "OBJECTID": 74, "HOSP_ID": 73, "NAME": "Tufts Medical Center", "SHORTNAME": "Tufts Medical Center", "ADDRESS": "800 Washington Street", "TOWN": "Boston", "STATE": "MA", "ZIPCODE": "02111", "ER_STATUS": "Y", "TRAUMA": "Y", "TEACHING": "Y", "ORG_ID": 104, "DPHNUMBER": "2299", "EMSREGION": 4 }, "geometry": { "type": "Point", "coordinates": [ 235935.127300, 900018.626700 ] } }
,
{ "type": "Feature", "id": 10, "properties": { "OBJECTID": 75, "HOSP_ID": 75, "NAME": "Boston Medical Center - Menino Campus", "SHORTNAME": "Boston Med Ctr - Harrison Ave. Campus", "ADDRESS": "818 Harrison Avenue", "TOWN": "Boston", "STATE": "MA", "ZIPCODE": "02118", "ER_STATUS": "Y", "TRAUMA": "Y", "TEACHING": "Y", "ORG_ID": 16, "DPHNUMBER": "2307", "EMSREGION": 4 }, "geometry": { "type": "Point", "coordinates": [ 235109.827300, 898307.556700 ] } }
,
{ "type": "Feature", "id": 11, "properties": { "OBJECTID": 76, "HOSP_ID": 84, "NAME": "Beth Israel Deaconess Medical Center - West Campus", "SHORTNAME": "Beth Israel Deaconess Med Ctr West", "ADDRESS": "110 Francis Street", "TOWN": "Boston", "STATE": "MA", "ZIPCODE": "02215", "ER_STATUS": "N", "TRAUMA": "N", "TEACHING": "Y", "ORG_ID": 8702, "DPHNUMBER": "2069", "EMSREGION": 4 }, "geometry": { "type": "Point", "coordinates": [ 232228.177300, 898640.626700 ] } }
,
{ "type": "Feature", "id": 12, "properties": { "OBJECTID": 77, "HOSP_ID": 86, "NAME": "Boston Medical Center - East Newton Campus", "SHORTNAME": "Boston Med Ctr - East Newton Campus", "ADDRESS": "88 East Newton Stret", "TOWN": "Boston", "STATE": "MA", "ZIPCODE": "02118", "ER_STATUS": "Y", "TRAUMA": "N", "TEACHING": "Y", "ORG_ID": 144, "DPHNUMBER": "2084", "EMSREGION": 4 }, "geometry": { "type": "Point", "coordinates": [ 235387.877300, 898572.876700 ] } }
,
{ "type": "Feature", "id": 13, "properties": { "OBJECTID": 78, "HOSP_ID": 99, "NAME": "Health Alliance Hospital -- Burbank Campus", "SHORTNAME": "HealthAlliance Hospital - Burbank", "ADDRESS": "275 Nichols Road", "TOWN": "Fitchburg", "STATE": "MA", "ZIPCODE": "01420", "ER_STATUS": "N", "TRAUMA": "N", "TEACHING": "N", "ORG_ID": 8548, "DPHNUMBER": "2034", "EMSREGION": 2 }, "geometry": { "type": "Point", "coordinates": [ 174910.847300, 927517.376700 ] } }
,
{ "type": "Feature", "id": 14, "properties": { "OBJECTID": 79, "HOSP_ID": 103, "NAME": "Mercy Medical Center - Providence Behavioral Health Hospital Campus", "SHORTNAME": "Providence Behavioral Health Hospital", "ADDRESS": "1233 Main Street", "TOWN": "Holyoke", "STATE": "MA", "ZIPCODE": "01040", "ER_STATUS": "N", "TRAUMA": "N", "TEACHING": "N", "ORG_ID": 118, "DPHNUMBER": "2150", "EMSREGION": 1 }, "geometry": { "type": "Point", "coordinates": [ 106298.777300, 880117.066700 ] } }
,
{ "type": "Feature", "id": 15, "properties": { "OBJECTID": 80, "HOSP_ID": 112, "NAME": "MetroWest Medical Center - Leonard Morse Campus", "SHORTNAME": "Leonard Morse Hospital", "ADDRESS": "67 Union Street", "TOWN": "Natick", "STATE": "MA", "ZIPCODE": "01760", "ER_STATUS": "Y", "TRAUMA": "N", "TEACHING": "N", "ORG_ID": 457, "DPHNUMBER": "2039", "EMSREGION": 4 }, "geometry": { "type": "Point", "coordinates": [ 213563.407300, 892183.746700 ] } }
,
{ "type": "Feature", "id": 16, "properties": { "OBJECTID": 81, "HOSP_ID": 138, "NAME": "Berkshire Medical Center - Hillcrest Campus", "SHORTNAME": "BMC Hillcrest Campus", "ADDRESS": "165 Tor Court", "TOWN": "Pittsfield", "STATE": "MA", "ZIPCODE": "01201", "ER_STATUS": "N", "TRAUMA": "N", "TEACHING": "N", "ORG_ID": 9, "DPHNUMBER": "2231", "EMSREGION": 1 }, "geometry": { "type": "Point", "coordinates": [ 53509.937300, 913477.436700 ] } }
,
{ "type": "Feature", "id": 17, "properties": { "OBJECTID": 82, "HOSP_ID": 145, "NAME": "Lahey Clinic North Shore", "SHORTNAME": "Lahey Clinic, North Shore", "ADDRESS": "One Essex Center Drive", "TOWN": "Peabody", "STATE": "MA", "ZIPCODE": "01960", "ER_STATUS": "Y", "TRAUMA": "N", "TEACHING": "Y", "ORG_ID": 4448, "DPHNUMBER": "2033", "EMSREGION": 3 }, "geometry": { "type": "Point", "coordinates": [ 245475.987300, 920887.816700 ] } }
,
{ "type": "Feature", "id": 18, "properties": { "OBJECTID": 1, "HOSP_ID": 1, "NAME": "Athol Memorial Hospital", "SHORTNAME": "Athol Memorial Hospital", "ADDRESS": "2033 Main Street", "TOWN": "Athol", "STATE": "MA", "ZIPCODE": "01331", "ER_STATUS": "Y", "TRAUMA": "N", "TEACHING": "N", "ORG_ID": 2, "DPHNUMBER": "2226", "EMSREGION": 2 }, "geometry": { "type": "Point", "coordinates": [ 141809.957300, 926347.186700 ] } }
,
{ "type": "Feature", "id": 19, "properties": { "OBJECTID": 2, "HOSP_ID": 2, "NAME": "Sturdy Memorial Hospital", "SHORTNAME": "Sturdy Memorial Hospital", "ADDRESS": "211 Park Street", "TOWN": "Attleboro", "STATE": "MA", "ZIPCODE": "02703", "ER_STATUS": "Y", "TRAUMA": "N", "TEACHING": "N", "ORG_ID": 129, "DPHNUMBER": "2100", "EMSREGION": 5 }, "geometry": { "type": "Point", "coordinates": [ 218675.177300, 854650.816700 ] } }
,
{ "type": "Feature", "id": 20, "properties": { "OBJECTID": 3, "HOSP_ID": 3, "NAME": "Nashoba Valley Medical Center", "SHORTNAME": "Nashoba Valley Medical Center", "ADDRESS": "200 Groton Road", "TOWN": "Ayer", "STATE": "MA", "ZIPCODE": "01432", "ER_STATUS": "Y", "TRAUMA": "N", "TEACHING": "N", "ORG_ID": 52, "DPHNUMBER": "2298", "EMSREGION": 2 }, "geometry": { "type": "Point", "coordinates": [ 193930.937300, 925222.566700 ] } }
,
{ "type": "Feature", "id": 21, "properties": { "OBJECTID": 4, "HOSP_ID": 4, "NAME": "Dana-Farber Cancer Institute", "SHORTNAME": "Dana-Farber Cancer Institute", "ADDRESS": "44 Binney Street", "TOWN": "Boston", "STATE": "MA", "ZIPCODE": "02115", "ER_STATUS": "N", "TRAUMA": "N", "TEACHING": "Y", "ORG_ID": 51, "DPHNUMBER": "2335", "EMSREGION": 4 }, "geometry": { "type": "Point", "coordinates": [ 232376.157300, 898637.316700 ] } }
,
{ "type": "Feature", "id": 22, "properties": { "OBJECTID": 5, "HOSP_ID": 5, "NAME": "Massachusetts Eye and Ear Infirmary", "SHORTNAME": "Mass. Eye & Ear Infirmary", "ADDRESS": "243 Charles Street", "TOWN": "Boston", "STATE": "MA", "ZIPCODE": "02114", "ER_STATUS": "Y", "TRAUMA": "N", "TEACHING": "Y", "ORG_ID": 89, "DPHNUMBER": "2167", "EMSREGION": 4 }, "geometry": { "type": "Point", "coordinates": [ 235413.997300, 901462.996700 ] } }
,
{ "type": "Feature", "id": 23, "properties": { "OBJECTID": 6, "HOSP_ID": 8, "NAME": "Caritas St. Elizabeth's Medical Center", "SHORTNAME": "St. Elizabeth's Medical Center", "ADDRESS": "736 Cambridge Street", "TOWN": "Boston", "STATE": "MA", "ZIPCODE": "02135", "ER_STATUS": "Y", "TRAUMA": "N", "TEACHING": "Y", "ORG_ID": 126, "DPHNUMBER": "2085", "EMSREGION": 4 }, "geometry": { "type": "Point", "coordinates": [ 228987.247300, 899941.316700 ] } }
,
{ "type": "Feature", "id": 24, "properties": { "OBJECTID": 7, "HOSP_ID": 9, "NAME": "Brockton Hospital", "SHORTNAME": "Brockton Hospital", "ADDRESS": "680 Centre Street", "TOWN": "Brockton", "STATE": "MA", "ZIPCODE": "02302", "ER_STATUS": "Y", "TRAUMA": "N", "TEACHING": "N", "ORG_ID": 25, "DPHNUMBER": "2118", "EMSREGION": 5 }, "geometry": { "type": "Point", "coordinates": [ 242073.377300, 870961.066700 ] } }
,
{ "type": "Feature", "id": 25, "properties": { "OBJECTID": 8, "HOSP_ID": 12, "NAME": "Mount Auburn Hospital", "SHORTNAME": "Mount Auburn Hospital", "ADDRESS": "330 Mount Auburn Street", "TOWN": "Cambridge", "STATE": "MA", "ZIPCODE": "02138", "ER_STATUS": "Y", "TRAUMA": "N", "TEACHING": "N", "ORG_ID": 100, "DPHNUMBER": "2071", "EMSREGION": 4 }, "geometry": { "type": "Point", "coordinates": [ 230190.597300, 902715.126700 ] } }
,
{ "type": "Feature", "id": 26, "properties": { "OBJECTID": 9, "HOSP_ID": 13, "NAME": "Clinton Hospital", "SHORTNAME": "Clinton Hospital", "ADDRESS": "201 Highland Street", "TOWN": "Clinton", "STATE": "MA", "ZIPCODE": "01510", "ER_STATUS": "Y", "TRAUMA": "N", "TEACHING": "N", "ORG_ID": 132, "DPHNUMBER": "2126", "EMSREGION": 2 }, "geometry": { "type": "Point", "coordinates": [ 184140.597300, 908564.496700 ] } }
,
{ "type": "Feature", "id": 27, "properties": { "OBJECTID": 10, "HOSP_ID": 15, "NAME": "Falmouth Hospital", "SHORTNAME": "Falmouth Hospital", "ADDRESS": "100 Ter Heun Drive", "TOWN": "Falmouth", "STATE": "MA", "ZIPCODE": "02540", "ER_STATUS": "Y", "TRAUMA": "N", "TEACHING": "N", "ORG_ID": 40, "DPHNUMBER": "2289", "EMSREGION": 5 }, "geometry": { "type": "Point", "coordinates": [ 273184.187300, 813055.936700 ] } }
,
{ "type": "Feature", "id": 28, "properties": { "OBJECTID": 11, "HOSP_ID": 16, "NAME": "MetroWest Medical Center - Framingham Campus", "SHORTNAME": "Framingham Union Hospital", "ADDRESS": "115 Lincoln Street", "TOWN": "Framingham", "STATE": "MA", "ZIPCODE": "01701", "ER_STATUS": "Y", "TRAUMA": "N", "TEACHING": "N", "ORG_ID": 49, "DPHNUMBER": "2020", "EMSREGION": 4 }, "geometry": { "type": "Point", "coordinates": [ 206712.047300, 892747.246700 ] } }
,
{ "type": "Feature", "id": 29, "properties": { "OBJECTID": 12, "HOSP_ID": 17, "NAME": "Heywood Hospital", "SHORTNAME": "Heywood Hospital", "ADDRESS": "242 Green Street", "TOWN": "Gardner", "STATE": "MA", "ZIPCODE": "01440", "ER_STATUS": "Y", "TRAUMA": "N", "TEACHING": "N", "ORG_ID": 73, "DPHNUMBER": "2036", "EMSREGION": 2 }, "geometry": { "type": "Point", "coordinates": [ 160014.857300, 926307.566700 ] } }
,
{ "type": "Feature", "id": 30, "properties": { "OBJECTID": 13, "HOSP_ID": 19, "NAME": "Baystate Franklin Medical Center", "SHORTNAME": "Franklin Medical Center", "ADDRESS": "164 High Street", "TOWN": "Greenfield", "STATE": "MA", "ZIPCODE": "01301", "ER_STATUS": "Y", "TRAUMA": "N", "TEACHING": "N", "ORG_ID": 5, "DPHNUMBER": "2120", "EMSREGION": 1 }, "geometry": { "type": "Point", "coordinates": [ 110353.307300, 927813.246700 ] } }
,
{ "type": "Feature", "id": 31, "properties": { "OBJECTID": 14, "HOSP_ID": 22, "NAME": "North Shore Medical Center  - Union Campus", "SHORTNAME": "NSMC Union Hospital", "ADDRESS": "500 Lynnfield Street", "TOWN": "Lynn", "STATE": "MA", "ZIPCODE": "01904", "ER_STATUS": "Y", "TRAUMA": "N", "TEACHING": "N", "ORG_ID": 3, "DPHNUMBER": "2073", "EMSREGION": 3 }, "geometry": { "type": "Point", "coordinates": [ 242761.357300, 916942.686700 ] } }
,
{ "type": "Feature", "id": 32, "properties": { "OBJECTID": 15, "HOSP_ID": 23, "NAME": "Hallmark Health System - Lawrence Memorial Hospital Campus", "SHORTNAME": "Lawrence Memorial Hospital", "ADDRESS": "170 Governors Avenue", "TOWN": "Medford", "STATE": "MA", "ZIPCODE": "02155", "ER_STATUS": "Y", "TRAUMA": "N", "TEACHING": "N", "ORG_ID": 66, "DPHNUMBER": "2038", "EMSREGION": 3 }, "geometry": { "type": "Point", "coordinates": [ 231981.887300, 908450.436700 ] } }
,
{ "type": "Feature", "id": 33, "properties": { "OBJECTID": 16, "HOSP_ID": 25, "NAME": "Caritas Holy Family Hospital and Medical Center", "SHORTNAME": "Holy Family Hospital", "ADDRESS": "70 East Street", "TOWN": "Methuen", "STATE": "MA", "ZIPCODE": "01844", "ER_STATUS": "Y", "TRAUMA": "N", "TEACHING": "N", "ORG_ID": 75, "DPHNUMBER": "2225", "EMSREGION": 3 }, "geometry": { "type": "Point", "coordinates": [ 227166.387300, 941952.936700 ] } }
,
{ "type": "Feature", "id": 34, "properties": { "OBJECTID": 17, "HOSP_ID": 27, "NAME": "Beth Israel Deaconess Hospital - Needham", "SHORTNAME": "Beth Israel Deaconess Hospital", "ADDRESS": "148 Chestnut Street", "TOWN": "Needham", "STATE": "MA", "ZIPCODE": "02492", "ER_STATUS": "Y", "TRAUMA": "N", "TEACHING": "N", "ORG_ID": 53, "DPHNUMBER": "2054", "EMSREGION": 4 }, "geometry": { "type": "Point", "coordinates": [ 221702.237300, 891877.626700 ] } }
,
{ "type": "Feature", "id": 35, "properties": { "OBJECTID": 18, "HOSP_ID": 28, "NAME": "Southcoast Hospitals Group - St. Luke's Campus", "SHORTNAME": "St. Luke's Hospital", "ADDRESS": "101 Page Street", "TOWN": "New Bedford", "STATE": "MA", "ZIPCODE": "02740", "ER_STATUS": "Y", "TRAUMA": "N", "TEACHING": "N", "ORG_ID": 124, "DPHNUMBER": "2010", "EMSREGION": 5 }, "geometry": { "type": "Point", "coordinates": [ 246804.317300, 819726.126700 ] } }
,
{ "type": "Feature", "id": 36, "properties": { "OBJECTID": 19, "HOSP_ID": 29, "NAME": "Anna Jaques Hospital", "SHORTNAME": "Anna Jaques Hospital", "ADDRESS": "25 Highland Avenue", "TOWN": "Newburyport", "STATE": "MA", "ZIPCODE": "01950", "ER_STATUS": "Y", "TRAUMA": "Y", "TEACHING": "N", "ORG_ID": 1, "DPHNUMBER": "2006", "EMSREGION": 3 }, "geometry": { "type": "Point", "coordinates": [ 249823.347300, 951699.686700 ] } }
,
{ "type": "Feature", "id": 37, "properties": { "OBJECTID": 20, "HOSP_ID": 30, "NAME": "Newton-Wellesley Hospital", "SHORTNAME": "Newton-Wellesley Hospital", "ADDRESS": "2014 Washington Street", "TOWN": "Newton", "STATE": "MA", "ZIPCODE": "02462", "ER_STATUS": "Y", "TRAUMA": "N", "TEACHING": "N", "ORG_ID": 105, "DPHNUMBER": "2075", "EMSREGION": 4 }, "geometry": { "type": "Point", "coordinates": [ 220921.027300, 897865.686700 ] } }
,
{ "type": "Feature", "id": 38, "properties": { "OBJECTID": 21, "HOSP_ID": 31, "NAME": "Cooley Dickinson Hospital", "SHORTNAME": "Cooley Dickinson Hospital", "ADDRESS": "30 Locust Street", "TOWN": "Northampton", "STATE": "MA", "ZIPCODE": "01061", "ER_STATUS": "Y", "TRAUMA": "N", "TEACHING": "N", "ORG_ID": 50, "DPHNUMBER": "2155", "EMSREGION": 1 }, "geometry": { "type": "Point", "coordinates": [ 104911.657300, 898427.746700 ] } }
,
{ "type": "Feature", "id": 39, "properties": { "OBJECTID": 22, "HOSP_ID": 32, "NAME": "Caritas Norwood Hospital", "SHORTNAME": "Norwood Hospital", "ADDRESS": "800 Washington Road", "TOWN": "Norwood", "STATE": "MA", "ZIPCODE": "02062", "ER_STATUS": "Y", "TRAUMA": "N", "TEACHING": "N", "ORG_ID": 41, "DPHNUMBER": "2114", "EMSREGION": 4 }, "geometry": { "type": "Point", "coordinates": [ 224623.027300, 882126.246700 ] } }
,
{ "type": "Feature", "id": 40, "properties": { "OBJECTID": 23, "HOSP_ID": 33, "NAME": "Kindred Hospital North Shore", "SHORTNAME": "Kindred Hospital - Boston North Shore", "ADDRESS": "15 King Street", "TOWN": "Peabody", "STATE": "MA", "ZIPCODE": "01960", "ER_STATUS": "N", "TRAUMA": "N", "TEACHING": "N", "ORG_ID": 135, "DPHNUMBER": "2171", "EMSREGION": 3 }, "geometry": { "type": "Point", "coordinates": [ 246199.717300, 919979.816700 ] } }
,
{ "type": "Feature", "id": 41, "properties": { "OBJECTID": 24, "HOSP_ID": 34, "NAME": "Berkshire Medical Center - Berkshire Campus", "SHORTNAME": "Berkshire Medical Center", "ADDRESS": "725 North Street", "TOWN": "Pittsfield", "STATE": "MA", "ZIPCODE": "01201", "ER_STATUS": "Y", "TRAUMA": "Y", "TEACHING": "Y", "ORG_ID": 7, "DPHNUMBER": "2313", "EMSREGION": 1 }, "geometry": { "type": "Point", "coordinates": [ 56138.207300, 913634.686700 ] } }
,
{ "type": "Feature", "id": 42, "properties": { "OBJECTID": 25, "HOSP_ID": 35, "NAME": "Jordan Hospital", "SHORTNAME": "Jordan Hospital", "ADDRESS": "275 Sandwich Street", "TOWN": "Plymouth", "STATE": "MA", "ZIPCODE": "02360", "ER_STATUS": "Y", "TRAUMA": "N", "TEACHING": "N", "ORG_ID": 79, "DPHNUMBER": "2082", "EMSREGION": 5 }, "geometry": { "type": "Point", "coordinates": [ 270901.597300, 855109.246700 ] } }
,
{ "type": "Feature", "id": 43, "properties": { "OBJECTID": 26, "HOSP_ID": 36, "NAME": "Quincy Medical Center", "SHORTNAME": "Quincy Medical Center", "ADDRESS": "114 Whitwell Street", "TOWN": "Quincy", "STATE": "MA", "ZIPCODE": "02169", "ER_STATUS": "Y", "TRAUMA": "N", "TEACHING": "N", "ORG_ID": 112, "DPHNUMBER": "2151", "EMSREGION": 4 }, "geometry": { "type": "Point", "coordinates": [ 240114.127300, 889070.626700 ] } }
,
{ "type": "Feature", "id": 44, "properties": { "OBJECTID": 27, "HOSP_ID": 37, "NAME": "North Shore Medical Center  - Salem Campus", "SHORTNAME": "NSMC Salem Hospital", "ADDRESS": "81 Highland Avenue", "TOWN": "Salem", "STATE": "MA", "ZIPCODE": "01970", "ER_STATUS": "Y", "TRAUMA": "Y", "TEACHING": "N", "ORG_ID": 116, "DPHNUMBER": "2014", "EMSREGION": 3 }, "geometry": { "type": "Point", "coordinates": [ 248750.407300, 918012.746700 ] } }
,
{ "type": "Feature", "id": 45, "properties": { "OBJECTID": 28, "HOSP_ID": 38, "NAME": "Harrington Memorial Hospital", "SHORTNAME": "Harrington Memorial Hospital", "ADDRESS": "100 South Street", "TOWN": "Southbridge", "STATE": "MA", "ZIPCODE": "01550", "ER_STATUS": "Y", "TRAUMA": "N", "TEACHING": "N", "ORG_ID": 68, "DPHNUMBER": "2143", "EMSREGION": 2 }, "geometry": { "type": "Point", "coordinates": [ 155182.187300, 869948.746700 ] } }
,
{ "type": "Feature", "id": 46, "properties": { "OBJECTID": 29, "HOSP_ID": 39, "NAME": "Baystate Medical Center", "SHORTNAME": "Baystate Medical Center", "ADDRESS": "759 Chestnut Street", "TOWN": "Springfield", "STATE": "MA", "ZIPCODE": "01199", "ER_STATUS": "Y", "TRAUMA": "Y", "TEACHING": "Y", "ORG_ID": 4, "DPHNUMBER": "2339", "EMSREGION": 1 }, "geometry": { "type": "Point", "coordinates": [ 108768.347300, 875133.566700 ] } }
,
{ "type": "Feature", "id": 47, "properties": { "OBJECTID": 30, "HOSP_ID": 40, "NAME": "Mercy Medical Center - Springfield Campus", "SHORTNAME": "Mercy Medical Center", "ADDRESS": "271 Carew Street", "TOWN": "Springfield", "STATE": "MA", "ZIPCODE": "01102", "ER_STATUS": "Y", "TRAUMA": "N", "TEACHING": "N", "ORG_ID": 119, "DPHNUMBER": "2149", "EMSREGION": 1 }, "geometry": { "type": "Point", "coordinates": [ 109452.177300, 874383.746700 ] } }
,
{ "type": "Feature", "id": 48, "properties": { "OBJECTID": 31, "HOSP_ID": 41, "NAME": "Morton Hospital and Medical Center", "SHORTNAME": "Morton Hospital and Medical Center", "ADDRESS": "88 Washington Street", "TOWN": "Taunton", "STATE": "MA", "ZIPCODE": "02780", "ER_STATUS": "Y", "TRAUMA": "N", "TEACHING": "N", "ORG_ID": 99, "DPHNUMBER": "2022", "EMSREGION": 5 }, "geometry": { "type": "Point", "coordinates": [ 233644.987300, 850728.876700 ] } }
,
{ "type": "Feature", "id": 49, "properties": { "OBJECTID": 32, "HOSP_ID": 42, "NAME": "Baystate Mary Lane Hospital", "SHORTNAME": "Mary Lane Hospital", "ADDRESS": "85 South Street", "TOWN": "Ware", "STATE": "MA", "ZIPCODE": "01082", "ER_STATUS": "Y", "TRAUMA": "N", "TEACHING": "N", "ORG_ID": 6, "DPHNUMBER": "2148", "EMSREGION": 1 }, "geometry": { "type": "Point", "coordinates": [ 138707.427300, 889509.376700 ] } }
,
{ "type": "Feature", "id": 50, "properties": { "OBJECTID": 33, "HOSP_ID": 43, "NAME": "Southcoast Hospitals Group - Tobey Hospital Campus", "SHORTNAME": "Tobey Hospital", "ADDRESS": "43 High Street", "TOWN": "Wareham", "STATE": "MA", "ZIPCODE": "02571", "ER_STATUS": "Y", "TRAUMA": "N", "TEACHING": "N", "ORG_ID": 145, "DPHNUMBER": "2106", "EMSREGION": 5 }, "geometry": { "type": "Point", "coordinates": [ 265362.527300, 834262.746700 ] } }
,
{ "type": "Feature", "id": 51, "properties": { "OBJECTID": 34, "HOSP_ID": 45, "NAME": "Winchester Hospital", "SHORTNAME": "Winchester Hospital", "ADDRESS": "41 Highland Avenue", "TOWN": "Winchester", "STATE": "MA", "ZIPCODE": "01890", "ER_STATUS": "Y", "TRAUMA": "N", "TEACHING": "N", "ORG_ID": 138, "DPHNUMBER": "2094", "EMSREGION": 4 }, "geometry": { "type": "Point", "coordinates": [ 231024.377300, 912897.436700 ] } }
,
{ "type": "Feature", "id": 52, "properties": { "OBJECTID": 35, "HOSP_ID": 46, "NAME": "UMass Memorial Medical Center - Memorial Campus", "SHORTNAME": "UMass Memorial Medical Center", "ADDRESS": "119 Belmont Street", "TOWN": "Worcester", "STATE": "MA", "ZIPCODE": "01605", "ER_STATUS": "Y", "TRAUMA": "N", "TEACHING": "Y", "ORG_ID": 130, "DPHNUMBER": "2124", "EMSREGION": 3 }, "geometry": { "type": "Point", "coordinates": [ 175886.817300, 891423.686700 ] } }
,
{ "type": "Feature", "id": 53, "properties": { "OBJECTID": 36, "HOSP_ID": 48, "NAME": "UMass Memorial Medical Center - University Campus", "SHORTNAME": "UMass Medical School", "ADDRESS": "55 Lake Avenue North", "TOWN": "Worcester", "STATE": "MA", "ZIPCODE": "01655", "ER_STATUS": "Y", "TRAUMA": "Y", "TEACHING": "Y", "ORG_ID": 131, "DPHNUMBER": "2841", "EMSREGION": 2 }, "geometry": { "type": "Point", "coordinates": [ 178409.877300, 891960.686700 ] } }
,
{ "type": "Feature", "id": 54, "properties": { "OBJECTID": 37, "HOSP_ID": 51, "NAME": "Cape Cod Hospital", "SHORTNAME": "Cape Cod Hospital", "ADDRESS": "27 Park Street", "TOWN": "Barnstable", "STATE": "MA", "ZIPCODE": "02601", "ER_STATUS": "Y", "TRAUMA": "N", "TEACHING": "N", "ORG_ID": 39, "DPHNUMBER": "2135", "EMSREGION": 5 }, "geometry": { "type": "Point", "coordinates": [ 302229.187300, 823314.376700 ] } }
,
{ "type": "Feature", "id": 55, "properties": { "OBJECTID": 38, "HOSP_ID": 52, "NAME": "Northeast Hospital Corporation - Beverly Campus", "SHORTNAME": "Beverly Hospital", "ADDRESS": "85 Herrick Street", "TOWN": "Beverly", "STATE": "MA", "ZIPCODE": "01915", "ER_STATUS": "Y", "TRAUMA": "Y", "TEACHING": "N", "ORG_ID": 110, "DPHNUMBER": "2007", "EMSREGION": 3 }, "geometry": { "type": "Point", "coordinates": [ 251263.487300, 923915.376700 ] } }
,
{ "type": "Feature", "id": 56, "properties": { "OBJECTID": 39, "HOSP_ID": 53, "NAME": "Southcoast Hospitals Group - Charlton Memorial Campus", "SHORTNAME": "Charlton Memorial Hospital", "ADDRESS": "363 Highland Avenue", "TOWN": "Fall River", "STATE": "MA", "ZIPCODE": "02720", "ER_STATUS": "Y", "TRAUMA": "N", "TEACHING": "N", "ORG_ID": 123, "DPHNUMBER": "2337", "EMSREGION": 5 }, "geometry": { "type": "Point", "coordinates": [ 229479.017300, 828899.686700 ] } }
,
{ "type": "Feature", "id": 57, "properties": { "OBJECTID": 40, "HOSP_ID": 54, "NAME": "Saint Anne's Hospital", "SHORTNAME": "St. Anne's Hospital", "ADDRESS": "795 Middle Street", "TOWN": "Fall River", "STATE": "MA", "ZIPCODE": "02721", "ER_STATUS": "Y", "TRAUMA": "N", "TEACHING": "N", "ORG_ID": 114, "DPHNUMBER": "2011", "EMSREGION": 5 }, "geometry": { "type": "Point", "coordinates": [ 228023.913800, 826999.836800 ] } }
,
{ "type": "Feature", "id": 58, "properties": { "OBJECTID": 41, "HOSP_ID": 56, "NAME": "Fairview Hospital", "SHORTNAME": "Fairview Hospital", "ADDRESS": "29 Lewis Avenue", "TOWN": "Great Barrington", "STATE": "MA", "ZIPCODE": "01230", "ER_STATUS": "Y", "TRAUMA": "N", "TEACHING": "N", "ORG_ID": 8, "DPHNUMBER": "2052", "EMSREGION": 1 }, "geometry": { "type": "Point", "coordinates": [ 45396.157300, 883993.126700 ] } }
,
{ "type": "Feature", "id": 59, "properties": { "OBJECTID": 42, "HOSP_ID": 57, "NAME": "Health Alliance Hospital -- Leominster Campus", "SHORTNAME": "HealthAlliance Hospital - Leominster", "ADDRESS": "60 Hospital Road", "TOWN": "Leominster", "STATE": "MA", "ZIPCODE": "01453", "ER_STATUS": "Y", "TRAUMA": "N", "TEACHING": "N", "ORG_ID": 8509, "DPHNUMBER": "2127", "EMSREGION": 2 }, "geometry": { "type": "Point", "coordinates": [ 178443.937300, 921209.626700 ] } }
,
{ "type": "Feature", "id": 60, "properties": { "OBJECTID": 43, "HOSP_ID": 58, "NAME": "Holyoke Medical Center", "SHORTNAME": "Holyoke Medical Center", "ADDRESS": "575 Beech Street", "TOWN": "Holyoke", "STATE": "MA", "ZIPCODE": "01040", "ER_STATUS": "Y", "TRAUMA": "N", "TEACHING": "N", "ORG_ID": 77, "DPHNUMBER": "2145", "EMSREGION": 1 }, "geometry": { "type": "Point", "coordinates": [ 106880.717300, 883934.066700 ] } }
,
{ "type": "Feature", "id": 61, "properties": { "OBJECTID": 44, "HOSP_ID": 59, "NAME": "Lawrence General Hospital", "SHORTNAME": "Lawrence General Hospital", "ADDRESS": "One General Street", "TOWN": "Lawrence", "STATE": "MA", "ZIPCODE": "01842", "ER_STATUS": "Y", "TRAUMA": "Y", "TEACHING": "N", "ORG_ID": 83, "DPHNUMBER": "2099", "EMSREGION": 3 }, "geometry": { "type": "Point", "coordinates": [ 228647.747300, 939975.316700 ] } }
,
{ "type": "Feature", "id": 62, "properties": { "OBJECTID": 45, "HOSP_ID": 62, "NAME": "Milton Hospital", "SHORTNAME": "Milton Hospital", "ADDRESS": "92 Highland Street", "TOWN": "Milton", "STATE": "MA", "ZIPCODE": "02186", "ER_STATUS": "Y", "TRAUMA": "N", "TEACHING": "N", "ORG_ID": 98, "DPHNUMBER": "2227", "EMSREGION": 4 }, "geometry": { "type": "Point", "coordinates": [ 234909.407300, 889048.436700 ] } }
,
{ "type": "Feature", "id": 63, "properties": { "OBJECTID": 46, "HOSP_ID": 63, "NAME": "Nantucket Cottage Hospital", "SHORTNAME": "Nantucket Cottage Hospital", "ADDRESS": "57 Prospect Street", "TOWN": "Nantucket", "STATE": "MA", "ZIPCODE": "02554", "ER_STATUS": "Y", "TRAUMA": "N", "TEACHING": "N", "ORG_ID": 101, "DPHNUMBER": "2044", "EMSREGION": 5 }, "geometry": { "type": "Point", "coordinates": [ 317238.627300, 781526.816700 ] } }
,
{ "type": "Feature", "id": 64, "properties": { "OBJECTID": 47, "HOSP_ID": 64, "NAME": "Noble Hospital", "SHORTNAME": "Noble Hospital", "ADDRESS": "115 West Silver Street", "TOWN": "Westfield", "STATE": "MA", "ZIPCODE": "01086", "ER_STATUS": "Y", "TRAUMA": "N", "TEACHING": "N", "ORG_ID": 106, "DPHNUMBER": "2076", "EMSREGION": 1 }, "geometry": { "type": "Point", "coordinates": [ 95846.277300, 874977.246700 ] } }
,
{ "type": "Feature", "id": 65, "properties": { "OBJECTID": 48, "HOSP_ID": 65, "NAME": "North Adams Regional Hospital", "SHORTNAME": "North Adams Regional Hospital", "ADDRESS": "71 Hospital Avenue", "TOWN": "North Adams", "STATE": "MA", "ZIPCODE": "01247", "ER_STATUS": "Y", "TRAUMA": "N", "TEACHING": "N", "ORG_ID": 107, "DPHNUMBER": "2061", "EMSREGION": 1 }, "geometry": { "type": "Point", "coordinates": [ 68157.337300, 940889.126700 ] } }
,
{ "type": "Feature", "id": 66, "properties": { "OBJECTID": 49, "HOSP_ID": 67, "NAME": "Cambridge Health Alliance - Somerville Campus", "SHORTNAME": "Somerville Hospital", "ADDRESS": "230 Highland Avenue", "TOWN": "Somerville", "STATE": "MA", "ZIPCODE": "02143", "ER_STATUS": "Y", "TRAUMA": "N", "TEACHING": "Y", "ORG_ID": 143, "DPHNUMBER": "2001", "EMSREGION": 4 }, "geometry": { "type": "Point", "coordinates": [ 232161.607300, 904473.686700 ] } }
,
{ "type": "Feature", "id": 67, "properties": { "OBJECTID": 50, "HOSP_ID": 68, "NAME": "South Shore Hospital", "SHORTNAME": "South Shore Hospital", "ADDRESS": "55 Fogg Road", "TOWN": "Weymouth", "STATE": "MA", "ZIPCODE": "02190", "ER_STATUS": "Y", "TRAUMA": "Y", "TEACHING": "N", "ORG_ID": 122, "DPHNUMBER": "2107", "EMSREGION": 4 }, "geometry": { "type": "Point", "coordinates": [ 245095.957300, 880750.496700 ] } }
,
{ "type": "Feature", "id": 68, "properties": { "OBJECTID": 51, "HOSP_ID": 69, "NAME": "Cambridge Health Alliance - Cambridge Campus", "SHORTNAME": "Cambridge Hospital", "ADDRESS": "1493 Cambridge Street", "TOWN": "Cambridge", "STATE": "MA", "ZIPCODE": "02139", "ER_STATUS": "Y", "TRAUMA": "N", "TEACHING": "Y", "ORG_ID": 27, "DPHNUMBER": "2108", "EMSREGION": 4 }, "geometry": { "type": "Point", "coordinates": [ 232607.177300, 902739.876700 ] } }
,
{ "type": "Feature", "id": 69, "properties": { "OBJECTID": 52, "HOSP_ID": 71, "NAME": "Wing Memorial Hospital and Medical Centers", "SHORTNAME": "Wing Memorial Hospital", "ADDRESS": "40 Wright Street", "TOWN": "Palmer", "STATE": "MA", "ZIPCODE": "01069", "ER_STATUS": "Y", "TRAUMA": "N", "TEACHING": "N", "ORG_ID": 139, "DPHNUMBER": "2181", "EMSREGION": 1 }, "geometry": { "type": "Point", "coordinates": [ 130443.927300, 880250.746700 ] } }
,
{ "type": "Feature", "id": 70, "properties": { "OBJECTID": 53, "HOSP_ID": 72, "NAME": "Kindred Hospital Boston", "SHORTNAME": "Kindred Hospital - Boston", "ADDRESS": "1515 Commonwealth Avenue", "TOWN": "Boston", "STATE": "MA", "ZIPCODE": "02135", "ER_STATUS": "N", "TRAUMA": "N", "TEACHING": "N", "ORG_ID": 136, "DPHNUMBER": "2091", "EMSREGION": 4 }, "geometry": { "type": "Point", "coordinates": [ 229505.527300, 899629.186700 ] } }
,
{ "type": "Feature", "id": 71, "properties": { "OBJECTID": 54, "HOSP_ID": 74, "NAME": "Faulkner Hospital", "SHORTNAME": "Faulkner Hospital", "ADDRESS": "1153 Centre Street", "TOWN": "Boston", "STATE": "MA", "ZIPCODE": "02130", "ER_STATUS": "Y", "TRAUMA": "N", "TEACHING": "Y", "ORG_ID": 59, "DPHNUMBER": "2048", "EMSREGION": 4 }, "geometry": { "type": "Point", "coordinates": [ 230650.737300, 894607.746700 ] } }
,
{ "type": "Feature", "id": 72, "properties": { "OBJECTID": 55, "HOSP_ID": 76, "NAME": "Brigham and Women's Hospital", "SHORTNAME": "Brigham and Women's Hospital", "ADDRESS": "75 Francis Street", "TOWN": "Boston", "STATE": "MA", "ZIPCODE": "02115", "ER_STATUS": "Y", "TRAUMA": "N", "TEACHING": "Y", "ORG_ID": 22, "DPHNUMBER": "2921", "EMSREGION": 4 }, "geometry": { "type": "Point", "coordinates": [ 232407.137300, 898458.936700 ] } }
,
{ "type": "Feature", "id": 73, "properties": { "OBJECTID": 56, "HOSP_ID": 77, "NAME": "Caritas Carney Hospital", "SHORTNAME": "Carney Hospital", "ADDRESS": "2100 Dorchester Avenue", "TOWN": "Boston", "STATE": "MA", "ZIPCODE": "02124", "ER_STATUS": "Y", "TRAUMA": "N", "TEACHING": "N", "ORG_ID": 42, "DPHNUMBER": "2003", "EMSREGION": 4 }, "geometry": { "type": "Point", "coordinates": [ 235840.407300, 891975.686700 ] } }
,
{ "type": "Feature", "id": 74, "properties": { "OBJECTID": 57, "HOSP_ID": 78, "NAME": "Children's Hospital Boston", "SHORTNAME": "Children's Hospital", "ADDRESS": "300 Longwood Avenue", "TOWN": "Boston", "STATE": "MA", "ZIPCODE": "02115", "ER_STATUS": "Y", "TRAUMA": "Y", "TEACHING": "Y", "ORG_ID": 46, "DPHNUMBER": "2139", "EMSREGION": 4 }, "geometry": { "type": "Point", "coordinates": [ 232465.937300, 898589.816700 ] } }
,
{ "type": "Feature", "id": 75, "properties": { "OBJECTID": 58, "HOSP_ID": 20, "NAME": "Merrimack Valley Hospital", "SHORTNAME": "Merrimack Valley Hospital", "ADDRESS": "140 Lincoln Avenue", "TOWN": "Haverhill", "STATE": "MA", "ZIPCODE": "01830", "ER_STATUS": "Y", "TRAUMA": "N", "TEACHING": "N", "ORG_ID": 70, "DPHNUMBER": "2131", "EMSREGION": 3 }, "geometry": { "type": "Point", "coordinates": [ 237201.347300, 946164.126700 ] } }
,
{ "type": "Feature", "id": 76, "properties": { "OBJECTID": 59, "HOSP_ID": 6, "NAME": "Massachusetts General Hospital", "SHORTNAME": "Mass. General Hospital", "ADDRESS": "55 Fruit Street", "TOWN": "Boston", "STATE": "MA", "ZIPCODE": "02114", "ER_STATUS": "Y", "TRAUMA": "Y", "TEACHING": "Y", "ORG_ID": 91, "DPHNUMBER": "2168", "EMSREGION": 4 }, "geometry": { "type": "Point", "coordinates": [ 235479.187300, 901433.816700 ] } }
,
{ "type": "Feature", "id": 77, "properties": { "OBJECTID": 60, "HOSP_ID": 7, "NAME": "New England Baptist Hospital", "SHORTNAME": "New England Baptist Hospital", "ADDRESS": "125 Parker Hill Avenue", "TOWN": "Boston", "STATE": "MA", "ZIPCODE": "02120", "ER_STATUS": "N", "TRAUMA": "N", "TEACHING": "N", "ORG_ID": 103, "DPHNUMBER": "2059", "EMSREGION": 4 }, "geometry": { "type": "Point", "coordinates": [ 232378.877300, 897788.626700 ] } }
,
{ "type": "Feature", "id": 78, "properties": { "OBJECTID": 61, "HOSP_ID": 10, "NAME": "Caritas Good Samaritan Medical Center - Brockton Campus", "SHORTNAME": "Good Samaritan Medical Center", "ADDRESS": "235 North Pearl Street", "TOWN": "Brockton", "STATE": "MA", "ZIPCODE": "02301", "ER_STATUS": "Y", "TRAUMA": "N", "TEACHING": "N", "ORG_ID": 62, "DPHNUMBER": "2101", "EMSREGION": 5 }, "geometry": { "type": "Point", "coordinates": [ 236240.427300, 872035.436700 ] } }
,
{ "type": "Feature", "id": 79, "properties": { "OBJECTID": 62, "HOSP_ID": 11, "NAME": "Lahey Clinic Medical Center", "SHORTNAME": "Lahey Clinic Medical Center", "ADDRESS": "41 Mall Road", "TOWN": "Burlington", "STATE": "MA", "ZIPCODE": "01805", "ER_STATUS": "Y", "TRAUMA": "Y", "TEACHING": "Y", "ORG_ID": 81, "DPHNUMBER": "2033", "EMSREGION": 4 }, "geometry": { "type": "Point", "coordinates": [ 224772.517300, 915363.186700 ] } }
,
{ "type": "Feature", "id": 80, "properties": { "OBJECTID": 63, "HOSP_ID": 14, "NAME": "Cambridge Health Alliance - Whidden Memorial Campus", "SHORTNAME": "Whidden Memorial Hospital", "ADDRESS": "103 Garland Street", "TOWN": "Everett", "STATE": "MA", "ZIPCODE": "02149", "ER_STATUS": "Y", "TRAUMA": "N", "TEACHING": "Y", "ORG_ID": 142, "DPHNUMBER": "2046", "EMSREGION": 3 }, "geometry": { "type": "Point", "coordinates": [ 237901.297300, 906622.316700 ] } }
,
{ "type": "Feature", "id": 81, "properties": { "OBJECTID": 64, "HOSP_ID": 18, "NAME": "Northeast Hospital Corporation - Addison Gilbert Campus", "SHORTNAME": "Addison Gilbert Hospital", "ADDRESS": "298 Washington Street", "TOWN": "Gloucester", "STATE": "MA", "ZIPCODE": "01930", "ER_STATUS": "Y", "TRAUMA": "N", "TEACHING": "N", "ORG_ID": 109, "DPHNUMBER": "2016", "EMSREGION": 3 }, "geometry": { "type": "Point", "coordinates": [ 267217.097300, 930834.436700 ] } }

]
}
