{"type":"FeatureCollection","features":[{"type":"Feature","properties":{"Name":"Central Mass RLC/Kiva Center","Address - Street":"209 Shrewsbury Street","Address - Locality":"Worcester","Address - State":"MA","Address - Zip Code":"01604"},"geometry":{"type":"Point","coordinates":[-71.784575,42.265939]}},{"type":"Feature","properties":{"Name":"Western Massachusetts Training Consortium - Western Mass. RLC","Address - Street":"187 High Street","Address - Locality":"Holyoke","Address - State":"MA","Address - Zip Code":"01040"},"geometry":{"type":"Point","coordinates":[-72.607188,42.207885]}},{"type":"Feature","properties":{"Name":"Northeast Independent Living Program - Northeast RLC","Address - Street":"20 Ballard Road","Address - Locality":"Lawrence","Address - State":"MA","Address - Zip Code":"01843"},"geometry":{"type":"Point","coordinates":[-71.186104,42.685213]}},{"type":"Feature","properties":{"Name":"Metro Suburban RLC","Address - Street":"460 Quincy Ave.","Address - Locality":"Quincy","Address - State":"MA","Address - Zip Code":"02169"},"geometry":{"type":"Point","coordinates":[-70.980248,42.238585]}},{"type":"Feature","properties":{"Name":"Metro Boston RLC","Address - Street":"85 E. Newton Street","Address - Locality":"Boston","Address - State":"MA","Address - Zip Code":"02118"},"geometry":{"type":"Point","coordinates":[-71.070757,42.336172]}},{"type":"Feature","properties":{"Name":"Southeast RLC","Address - Street":"60 Hodges Ave.","Address - Locality":"Taunton","Address - State":"MA","Address - Zip Code":"02780"},"geometry":{"type":"Point","coordinates":[-71.100836,41.91287]}}]}